var pontos ={
"type": "FeatureCollection",
"name": "dados_cad",
"crs": { "type": "name", "properties": { "name": "urn:ogc:def:crs:EPSG::4674" } },
"features": [

{ "type": "Feature", "properties": 
{ "id": 109, "Score": 2, "icon": "circle", "Nome": "Auto Escola Pinheiro", "Endereco": "Rua Uranos", "tipo": "Serviços" },
 "geometry": { "type": "Point", "coordinates": [ -43.260143323074843, -22.855385599979371 ] } },

{ "type": "Feature", "properties": { "id": 990, "Score": 3, "icon": "bank", "Nome": "Banco do Brasil", "Endereco": "Rua Prof.Lace", "tipo": "Banco" }, "geometry": { "type": "Point", "coordinates": [ -43.261118117382246, -22.855036943068406 ] } },
{ "type": "Feature", "properties": { "id": 116, "Score": 4, "icon": "restaurant", "Nome": "Bobs", "Endereco": "Rua Euclides Farias", "tipo": "Refeição" }, "geometry": { "type": "Point", "coordinates": [ -43.26337080282952, -22.85516843174446 ] } },
{ "type": "Feature", "properties": { "id": 101, "Score": 2, "icon": "circle", "Nome": "Bombeiros", "Endereco": "Rua Euclides Farias", "tipo": "Serviços" }, "geometry": { "type": "Point", "coordinates": [ -43.264289363263039, -22.855585891775899 ] } },
{ "type": "Feature", "properties": { "id": 992, "Score": 2, "icon": "bank", "Nome": "Bradesco", "Endereco": "Rua Eucliedes Farias", "tipo": "Banco" }, "geometry": { "type": "Point", "coordinates": [ -43.26225747580559, -22.85421762854806 ] } },
{ "type": "Feature", "properties": { "id": 155, "Score": 3, "icon": "bank", "Nome": "Caixa Econ.Federal", "Endereco": "Rua Euclides Farias", "tipo": "Banco" }, "geometry": { "type": "Point", "coordinates": [ -43.261977836340662, -22.854569604446681 ] } },
{ "type": "Feature", "properties": { "id": 995, "Score": 1, "icon": "triangle", "Nome": "Casa do Biscoito", "Endereco": "Rua Uranos", "tipo": "Comercio" }, "geometry": { "type": "Point", "coordinates": [ -43.261046279030317, -22.854436383597388 ] } },
{ "type": "Feature", "properties": { "id": 114, "Score": 1, "icon": "triangle", "Nome": "Casas Chamma", "Endereco": "Rua Euclides Farias", "tipo": "Comercio" }, "geometry": { "type": "Point", "coordinates": [ -43.262142346477425, -22.85427342414253 ] } },
{ "type": "Feature", "properties": { "id": 112, "Score": 1, "icon": "triangle", "Nome": "Citycol", "Endereco": "Rua Euclides Farias", "tipo": "Comercio" }, "geometry": { "type": "Point", "coordinates": [ -43.261790166735203, -22.854174947342567 ] } },
{ "type": "Feature", "properties": { "id": 996, "Score": 2, "icon": "circle", "Nome": "Correios", "Endereco": "Rua Uranos", "tipo": "Serviços" }, "geometry": { "type": "Point", "coordinates": [ -43.26108379969822, -22.854305976397971 ] } },
{ "type": "Feature", "properties": { "id": 994, "Score": 1, "icon": "triangle", "Nome": "Drogaria Pacheco", "Endereco": "Rua Uranos", "tipo": "Comercio" }, "geometry": { "type": "Point", "coordinates": [ -43.260642245496683, -22.854753936567196 ] } },
{ "type": "Feature", "properties": { "id": 105, "Score": 2, "icon": "school", "Nome": "Escola Mun Prof.Carneiro Ribeiro", "Endereco": "Rua Professor Lace", "tipo": "Educação" }, "geometry": { "type": "Point", "coordinates": [ -43.261899956312568, -22.855634851992825 ] } },
{ "type": "Feature", "properties": { "id": 106, "Score": 2, "icon": "school", "Nome": "Escola Mun. Joao Barbalho", "Endereco": "Rua Aureliano Lessa", "tipo": "Educação" }, "geometry": { "type": "Point", "coordinates": [ -43.261894763562282, -22.856484979395873 ] } },
{ "type": "Feature", "properties": { "id": 104, "Score": 2, "icon": "school", "Nome": "Escola Mun.Padre Manuel da Nobrega", "Endereco": "Rua Professor Lace", "tipo": "Educação" }, "geometry": { "type": "Point", "coordinates": [ -43.264238919403176, -22.857035410925597 ] } },
{ "type": "Feature", "properties": { "id": 102, "Score": 2, "icon": "school", "Nome": "Escola Mun.Walt Disney", "Endereco": "Rua Professor Lace", "tipo": "Educação" }, "geometry": { "type": "Point", "coordinates": [ -43.26435835265962, -22.856861824701937 ] } },
{ "type": "Feature", "properties": { "id": 123, "Score": 1, "icon": "bus", "Nome": "Estação Ramos", "Endereco": null, "tipo": "Mobilidade" }, "geometry": { "type": "Point", "coordinates": [ -43.260052264489538, -22.855129857028082 ] } },
{ "type": "Feature", "properties": { "id": 108, "Score": 5, "icon": "place-of-worship", "Nome": "Igreja N.S.das Merces", "Endereco": "Rua Roberto Silva", "tipo": "Religião" }, "geometry": { "type": "Point", "coordinates": [ -43.259931903956286, -22.856851439201382 ] } },
{ "type": "Feature", "properties": { "id": 108, "Score": 2, "icon": "square", "Nome": "Imperatriz Leopoldinense", "Endereco": "Rua Professor Lace", "tipo": "Social" }, "geometry": { "type": "Point", "coordinates": [ -43.262797560289599, -22.856188250808422 ] } },
{ "type": "Feature", "properties": { "id": 109, "Score": 5, "icon": "school", "Nome": "Instituto Pio XI", "Endereco": "Ria Roberto Silva", "tipo": "Educação" }, "geometry": { "type": "Point", "coordinates": [ -43.259762768661439, -22.857078436570781 ] } },
{ "type": "Feature", "properties": { "id": 993, "Score": 3, "icon": "bank", "Nome": "Itau", "Endereco": "Rua Uranos", "tipo": "Banco" }, "geometry": { "type": "Point", "coordinates": [ -43.261931417253983, -22.854686773235322 ] } },
{ "type": "Feature", "properties": { "id": 997, "Score": 1, "icon": "triangle", "Nome": "Lojas Americanas", "Endereco": "Rua Uranos", "tipo": "Comercio" }, "geometry": { "type": "Point", "coordinates": [ -43.260819324746386, -22.854661050035713 ] } },
{ "type": "Feature", "properties": { "id": 999, "Score": 1, "icon": "grocery", "Nome": "Mundial", "Endereco": "Rua Uranos", "tipo": "Mercado" }, "geometry": { "type": "Point", "coordinates": [ -43.259715668027134, -22.856488581104038 ] } },
{ "type": "Feature", "properties": { "id": 113, "Score": 1, "icon": "triangle", "Nome": "Muzuca", "Endereco": "Rua Euclides Farias", "tipo": "Comercio" }, "geometry": { "type": "Point", "coordinates": [ -43.262359680409794, -22.854380706255562 ] } },
{ "type": "Feature", "properties": { "id": 118, "Score": 1, "icon": "triangle", "Nome": "Ousado", "Endereco": "Rua Euclides Farias", "tipo": "Comercio" }, "geometry": { "type": "Point", "coordinates": [ -43.261296670003176, -22.854158070904152 ] } },
{ "type": "Feature", "properties": { "id": 121, "Score": 4, "icon": "restaurant", "Nome": "Padaria Nobre", "Endereco": "Rua Euclides Farias", "tipo": "Refeição" }, "geometry": { "type": "Point", "coordinates": [ -43.263677916917544, -22.855304185073212 ] } },
{ "type": "Feature", "properties": { "id": 111, "Score": 1, "icon": "triangle", "Nome": "Pet Ramos", "Endereco": "Rua Uranos", "tipo": "Comercio" }, "geometry": { "type": "Point", "coordinates": [ -43.2606151215289, -22.854787691875654 ] } },
{ "type": "Feature", "properties": { "id": 116, "Score": 2, "icon": "circle", "Nome": "Posto ALE", "Endereco": "Rua Euclides Farias", "tipo": "Serviços" }, "geometry": { "type": "Point", "coordinates": [ -43.263418279403517, -22.855181413620159 ] } },
{ "type": "Feature", "properties": { "id": 122, "Score": 2, "icon": "city", "Nome": "Prefeitura-Conservação", "Endereco": "Rua Euclides Farias", "tipo": "Serviço Publico" }, "geometry": { "type": "Point", "coordinates": [ -43.264446443959066, -22.855306410537619 ] } },
{ "type": "Feature", "properties": { "id": 110, "Score": 2, "icon": "city", "Nome": "Prefeitura-Desenv.Social", "Endereco": "Rua Professor Lace", "tipo": "Serviço Publico" }, "geometry": { "type": "Point", "coordinates": [ -43.260966744905019, -22.855194210040466 ] } },
{ "type": "Feature", "properties": { "id": 998, "Score": 1, "icon": "grocery", "Nome": "Prezunic", "Endereco": "Rua Uranos", "tipo": "Mercado" }, "geometry": { "type": "Point", "coordinates": [ -43.26539501595402, -22.850354867040213 ] } },
{ "type": "Feature", "properties": { "id": 99, "Score": 2, "icon": "circle", "Nome": "Prosil", "Endereco": "Rua Dr.Miguel Vieira Ferreira", "tipo": "Serviços" }, "geometry": { "type": "Point", "coordinates": [ -43.262414038590336, -22.855380036318351 ] } },
{ "type": "Feature", "properties": { "id": 117, "Score": 4, "icon": "restaurant", "Nome": "Restaurante El Fernand", "Endereco": "Rua Euclides Farias", "tipo": "Refeição" }, "geometry": { "type": "Point", "coordinates": [ -43.263571094626059, -22.854943659839449 ] } },
{ "type": "Feature", "properties": { "id": 991, "Score": 3, "icon": "bank", "Nome": "Santander", "Endereco": "Rua Euclides Farias", "tipo": "Banco" }, "geometry": { "type": "Point", "coordinates": [ -43.261541597603518, -22.854045848352815 ] } },
{ "type": "Feature", "properties": { "id": 115, "Score": 4, "icon": "square", "Nome": "Sesc", "Endereco": "Rua Euclides Farias", "tipo": "Social" }, "geometry": { "type": "Point", "coordinates": [ -43.264008769292559, -22.855021180182927 ] } },
{ "type": "Feature", "properties": { "id": 107, "Score": 4, "icon": "square", "Nome": "Social Ramos Clube", "Endereco": "Rua Aureliano Lessa", "tipo": "Social" }, "geometry": { "type": "Point", "coordinates": [ -43.261287953600942, -22.856753518767515 ] } },
{ "type": "Feature", "properties": { "id": 120, "Score": 5, "icon": "restaurant", "Nome": "Subway", "Endereco": "Rua Euclides Farias", "tipo": "Refeição" }, "geometry": { "type": "Point", "coordinates": [ -43.261510314586147, -22.854272311410323 ] } },

]
}
